[
  {
    "city_name": "New York",
    "state": "New York",
    "gps_coordinates": {
      "latitude": 40.7128,
      "longitude": -74.0060
    },
    "population": 8419600,
    "timezone": "Eastern Standard Time (EST)"
  },
  {
    "city_name": "Los Angeles",
    "state": "California",
    "gps_coordinates": {
      "latitude": 34.0522,
      "longitude": -118.2437
    },
    "population": 3980400,
    "timezone": "Pacific Standard Time (PST)"
  },
  {
    "city_name": "Chicago",
    "state": "Illinois",
    "gps_coordinates": {
      "latitude": 41.8781,
      "longitude": -87.6298
    },
    "population": 2716000,
    "timezone": "Central Standard Time (CST)"
  },
  {
    "city_name": "Houston",
    "state": "Texas",
    "gps_coordinates": {
      "latitude": 29.7604,
      "longitude": -95.3698
    },
    "population": 2328000,
    "timezone": "Central Standard Time (CST)"
  },
  {
    "city_name": "Phoenix",
    "state": "Arizona",
    "gps_coordinates": {
      "latitude": 33.4484,
      "longitude": -112.0740
    },
    "population": 1690000,
    "timezone": "Mountain Standard Time (MST)"
  },
  {
    "city_name": "Philadelphia",
    "state": "Pennsylvania",
    "gps_coordinates": {
      "latitude": 39.9526,
      "longitude": -75.1652
    },
    "population": 1584200,
    "timezone": "Eastern Standard Time (EST)"
  },
  {
    "city_name": "San Antonio",
    "state": "Texas",
    "gps_coordinates": {
      "latitude": 29.4241,
      "longitude": -98.4936
    },
    "population": 1547200,
    "timezone": "Central Standard Time (CST)"
  },
  {
    "city_name": "San Diego",
    "state": "California",
    "gps_coordinates": {
      "latitude": 32.7157,
      "longitude": -117.1611
    },
    "population": 1423851,
    "timezone": "Pacific Standard Time (PST)"
  },
  {
    "city_name": "Dallas",
    "state": "Texas",
    "gps_coordinates": {
      "latitude": 32.7767,
      "longitude": -96.7970
    },
    "population": 1341075,
    "timezone": "Central Standard Time (CST)"
  },
  {
    "city_name": "San Jose",
    "state": "California",
    "gps_coordinates": {
      "latitude": 37.3382,
      "longitude": -121.8863
    },
    "population": 1035350,
    "timezone": "Pacific Standard Time (PST)"
  }
]
